{
  "version": 1,
  "start": "2026-08-10",
  "budget": 42,
  "stops": [
    {"name":"Hanoi","c":"vn","n":3,"note":"Old Quarter; Lao embassy visa run on day 2","lat":21.0285,"lng":105.8542},
    {"leg":"2.5h","mode":"train"},
    {"name":"Ninh Binh","c":"vn","n":2,"note":"Trang An boat, Mua Cave viewpoint","lat":20.2506,"lng":105.9745},
    {"leg":"south &middot; ~6h","mode":"train"},
    {"name":"Phong Nha","c":"vn","n":4,"note":"Hang En trek, Paradise Cave, Bong Lai valley","lat":17.5757,"lng":106.2830},
    {"leg":"Dong Hoi &rarr; Hanoi &middot; then evening night bus","mode":"fly"},
    {"name":"Night bus to Ha Giang","c":"vn","n":1,"lock":true,"note":"Sleeper &middot; arrive early morning","lat":21.0285,"lng":105.8542,"transit":true},
    {"leg":"loop starts same morning","mode":"other"},
    {"name":"Ha Giang loop","c":"vn","n":3,"note":"4D3N easy-rider motorbike loop","lat":22.8026,"lng":104.9784},
    {"leg":"direct &middot; 6&ndash;7h","mode":"bus"},
    {"name":"Sapa","c":"vn","n":3,"note":"Fansipan, rice-terrace hikes","lat":22.3364,"lng":103.8438},
    {"leg":"via Lai Chau &middot; 8&ndash;10h mountain roads","mode":"bus"},
    {"name":"Dien Bien Phu","c":"vn","n":1,"note":"Pull cash, early night","lat":21.3856,"lng":103.0169},
    {"leg":"5:30am &middot; Tay Trang border &middot; visa in passport","mode":"bus"},
    {"name":"Muang Khua","c":"la","n":1,"note":"Riverside stop; boat leaves ~9am","lat":21.0729,"lng":102.5030},
    {"leg":"Nam Ou river &middot; ~5h &middot; portage at the dam","mode":"boat"},
    {"name":"Nong Khiaw","c":"la","n":3,"note":"Viewpoints, 100 Waterfalls, Muang Ngoi","lat":20.5709,"lng":102.6072},
    {"leg":"minivan &middot; ~4h","mode":"bus"},
    {"name":"Luang Prabang","c":"la","n":2,"note":"Kuang Si, alms giving, night market","lat":19.8856,"lng":102.1347},
    {"leg":"Laos&ndash;China railway &middot; ~1h","mode":"train"},
    {"name":"Vang Vieng","c":"la","n":3,"note":"Tubing, blue lagoons, Nam Xay viewpoint","lat":18.9231,"lng":102.4478},
    {"leg":"back north &middot; ~50min","mode":"train"},
    {"name":"Luang Prabang","c":"la","n":1,"note":"Buy slow-boat tickets, last kip run","lat":19.8856,"lng":102.1347},
    {"leg":"slow boat day 1 &middot; departs 8:30am","mode":"boat"},
    {"name":"Pak Beng","c":"la","n":1,"lock":true,"note":"Mandatory overnight boat stop","lat":19.8942,"lng":101.1300},
    {"leg":"slow boat day 2 &middot; arrive ~4:30pm","mode":"boat"},
    {"name":"Huay Xai","c":"la","n":1,"note":"Border town on the Mekong","lat":20.2765,"lng":100.4130},
    {"leg":"cross to Chiang Khong &middot; 2h","mode":"bus"},
    {"name":"Chiang Rai","c":"th","n":1,"note":"White Temple, Blue Temple","lat":19.9105,"lng":99.8406},
    {"leg":"3h","mode":"bus"},
    {"name":"Chiang Mai","c":"th","n":3,"note":"Doi Inthanon, elephant sanctuary, old city","lat":18.7883,"lng":98.9853},
    {"leg":"CNX &rarr; Samui or Surat Thani","mode":"fly"},
    {"name":"Gulf islands","c":"th","n":5,"note":"Koh Tao diving &rarr; Koh Phangan parties","lat":9.7314,"lng":100.0136},
    {"leg":"Samui &rarr; Bangkok &middot; 1h","mode":"fly"},
    {"name":"Bangkok","c":"th","n":4,"note":"Wind down &middot; 8am flight out on final day","lat":13.7563,"lng":100.5018}
  ]
}
